{
"type": "FeatureCollection",
"crs": { "type": "name", "properties": { "name": "urn:ogc:def:crs:OGC:1.3:CRS84" } },
"features": [
{ "type": "Feature", "properties": { "id": 6, "name": "London Eye", "address": "Blackwall St" }, "geometry": { "type": "Point", "coordinates": [ -0.015011236307363, 51.498195363745893 ] } },
{ "type": "Feature", "properties": { "id": 7, "name": "Westminster", "address": "Westminster Bdg" }, "geometry": { "type": "Point", "coordinates": [ -0.010395224385192, 51.498145189703266 ] } },
{ "type": "Feature", "properties": { "id": 8, "name": "Greenwich", "address": "Greenwich Park" }, "geometry": { "type": "Point", "coordinates": [ -0.006866316720053, 51.495143109485767 ] } },
{ "type": "Feature", "properties": { "id": 9, "name": "Camden Town", "address": "River Channel" }, "geometry": { "type": "Point", "coordinates": [ -0.010152716512469, 51.492132666927823 ] } },
{ "type": "Feature", "properties": { "id": 10, "name": "George Orwell House", "address": "Portobello Road" }, "geometry": { "type": "Point", "coordinates": [ -0.015170120775699, 51.492040681182999 ] } },
{ "type": "Feature", "properties": { "id": 11, "name": "Farringdon", "address": "Farringdon Ave" }, "geometry": { "type": "Point", "coordinates": [ -0.012611244601452, 51.495444153741559 ] } }
]
}
